{"type":"FeatureCollection","features":[{"type":"Feature","properties":{"id":73,"slug":"e-prie-de-ma'","icon":"Ristorante","name":"E Prie de Ma","address":""},"geometry":{"type":"Point","coordinates":[8.923671,44.416247]}},{"type":"Feature","properties":{"id":74,"slug":"e-prie-rosse","icon":"Ristorante","name":"E Prie Rosse","address":""},"geometry":{"type":"Point","coordinates":[8.93433,44.40539]}},{"type":"Feature","properties":{"id":88,"slug":"al-veliero","icon":"Ristorante","name":"Al Veliero","address":""},"geometry":{"type":"Point","coordinates":[8.928512,44.411837]}},{"type":"Feature","properties":{"id":93,"slug":"l'osteria-dei-bischeri","icon":"Ristorante","name":"L'Osteria dei Bischeri","address":""},"geometry":{"type":"Point","coordinates":[8.933359,44.406195]}},{"type":"Feature","properties":{"id":99,"slug":"la-forchetta-curiosa","icon":"Ristorante","name":"La forchetta curiosa","address":""},"geometry":{"type":"Point","coordinates":[8.93144,44.404826]}},{"type":"Feature","properties":{"id":142,"slug":"ostaia-de-baracche","icon":"Ristorante","name":"Ostaia de Baracche","address":"Via delle Baracche 2N"},"geometry":{"type":"Point","coordinates":[8.93604,44.44337]}},{"type":"Feature","properties":{"id":143,"slug":"osteria-dei-bischeri","icon":"Ristorante","name":"Osteria dei Bischeri","address":""},"geometry":{"type":"Point","coordinates":[8.93336,44.4062]}},{"type":"Feature","properties":{"id":165,"slug":"panson","icon":"Ristorante","name":"Panson","address":""},"geometry":{"type":"Point","coordinates":[8.932266,44.406399]}},{"type":"Feature","properties":{"id":166,"slug":"pikka-restaurant","icon":"Ristorante","name":"Pikka Restaurant","address":""},"geometry":{"type":"Point","coordinates":[8.936,44.40789]}},{"type":"Feature","properties":{"id":186,"slug":"pizzeria-&-ristorante-la-mama","icon":"Ristorante","name":"Pizzeria & Ristorante La Mama","address":""},"geometry":{"type":"Point","coordinates":[8.930997,44.406165]}},{"type":"Feature","properties":{"id":187,"slug":"pizzeria-ristorante-europa","icon":"Ristorante","name":"Pizzeria Ristorante Europa","address":""},"geometry":{"type":"Point","coordinates":[8.936507,44.408912]}},{"type":"Feature","properties":{"id":188,"slug":"pizzeria-vico-dei-biscotti","icon":"Ristorante","name":"Pizzeria Vico dei Biscotti","address":""},"geometry":{"type":"Point","coordinates":[8.93253,44.40593]}},{"type":"Feature","properties":{"id":190,"slug":"ristorante-e-prie-rosse","icon":"Ristorante","name":"Ristorante E Prie Rosse","address":""},"geometry":{"type":"Point","coordinates":[8.933542,44.404832]}},{"type":"Feature","properties":{"id":191,"slug":"ristorante-il-brigantino","icon":"Ristorante","name":"Ristorante Il Brigantino","address":""},"geometry":{"type":"Point","coordinates":[8.92546,44.41171]}},{"type":"Feature","properties":{"id":192,"slug":"ristorante-sapori-di-casa","icon":"Ristorante","name":"Ristorante Sapori di Casa","address":""},"geometry":{"type":"Point","coordinates":[8.925395,44.415234]}},{"type":"Feature","properties":{"id":193,"slug":"ristorante-sottosopra","icon":"Ristorante","name":"Ristorante Sottosopra","address":""},"geometry":{"type":"Point","coordinates":[8.929528,44.407169]}},{"type":"Feature","properties":{"id":194,"slug":"soul-kitchen","icon":"Ristorante","name":"Soul Kitchen","address":""},"geometry":{"type":"Point","coordinates":[8.929568,44.411323]}},{"type":"Feature","properties":{"id":199,"slug":"trattoria-antico-galeone","icon":"Ristorante","name":"Trattoria Antico Galeone","address":""},"geometry":{"type":"Point","coordinates":[8.928881,44.411243]}},{"type":"Feature","properties":{"id":200,"slug":"trattoria-da-ugo","icon":"Ristorante","name":"Trattoria da Ugo","address":""},"geometry":{"type":"Point","coordinates":[8.931554,44.406373]}},{"type":"Feature","properties":{"id":201,"slug":"trattoria-della-darsena","icon":"Ristorante","name":"Trattoria della Darsena","address":""},"geometry":{"type":"Point","coordinates":[8.924814,44.41462]}},{"type":"Feature","properties":{"id":202,"slug":"trattoria-la-ruota","icon":"Ristorante","name":"Trattoria La Ruota","address":""},"geometry":{"type":"Point","coordinates":[9.03791,44.38369]}},{"type":"Feature","properties":{"id":264,"slug":"mondopizza","icon":"Ristorante","name":"Mondopizza","address":"Via di pino soprano 171r"},"geometry":{"type":"Point","coordinates":[8.962634,44.466943]}}]}
